$PGIO,291486,C,00010530,00,00,0.00,0.00,13.7,6.32,0000,0000,0000,0000,0000,0000,0000,0000,00000,00000*7B

$GPRMC,070852.00,A,5544.2958,N,03738.9078,E,000.05833,220.9,011211,,,A*5F

$GNGSA,06,06*5C

$MLG,22,0*76

$PGIO,291486,C,00010531,00,00,0.00,0.00,13.7,6.32,0000,0000,0000,0000,0000,0000,0000,0000,00000,00000*7A

$GPRMC,070859.00,A,5544.2759,N,03738.8842,E,019.30179,192.9,011211,,,A*58

$GNGSA,07,07*5C

$MLG,22,35*40

$PGIO,291486,C,00010513,00,00,0.00,0.00,13.9,6.32,0000,0000,0000,0000,0000,0000,0000,0000,00000,00000*74

$GPRMC,070708,A,5544.3128,N,03738.9274,E,15.18,218.1,011211,,*1F

$GNGSA,05,05*5C

$MLG,22,28*4C

$PGIO,291486,C,00010514,00,00,0.00,0.00,13.9,6.31,0000,0000,0000,0000,0000,0000,0000,0000,00000,00000*70

$GPRMC,070718,A,5544.2994,N,03738.9089,E,00.52,045.1,011211,,*10

$GNGSA,05,07*5E

$MLG,22,0*76

$PGIO,291486,C,00010515,00,00,0.00,0.00,13.9,6.32,0000,0000,0000,0000,0000,0000,0000,0000,00000,00000*72

$GPRMC,070728,A,5544.2991,N,03738.9088,E,00.02,013.4,011211,,*14

$GNGSA,05,07*5E

$MLG,22,0*76

$PGIO,291486,C,00010516,00,00,0.00,0.00,13.8,6.32,0000,0000,0000,0000,0000,0000,0000,0000,00000,00000*70

$GPRMC,070738,A,5544.2987,N,03738.9087,E,00.02,338.7,011211,,*14

$GNGSA,05,07*5E

$MLG,22,0*76

$PGIO,291486,C,00010532,00,00,0.00,0.00,13.9,6.32,0000,0000,0000,0000,0000,0000,0000,0000,00000,00000*77

$GPRMC,070910.00,A,5544.2180,N,03738.9092,E,018.53079,167.1,011211,,,A*55

$GNGSA,05,04*5D

$MLG,23,34*40

$PGIO,291486,C,00010517,00,00,0.00,0.00,13.8,6.32,0000,0000,0000,0000,0000,0000,0000,0000,00000,00000*71

$GPRMC,070748,A,5544.2986,N,03738.9092,E,00.01,286.3,011211,,*15

$GNGSA,06,07*5D

$MLG,22,0*76

$PGIO,291486,C,00010518,00,00,0.00,0.00,13.8,6.32,0000,0000,0000,0000,0000,0000,0000,0000,00000,00000*7E

$GPRMC,070753,A,5544.2982,N,03738.9090,E,00.02,131.0,011211,,*16

$GNGSA,05,07*5E

$MLG,22,0*76

$PGIO,291486,C,00010533,00,00,0.00,0.00,13.8,6.32,0000,0000,0000,0000,0000,0000,0000,0000,00000,00000*77

$GPRMC,070915.00,A,5544.1981,N,03738.9149,E,009.11375,167.2,011211,,,A*57

$GNGSA,07,07*5C

$MLG,23,16*40

$PGIO,291486,C,00010519,00,00,0.00,0.00,13.8,6.32,0000,0000,0000,0000,0000,0000,0000,0000,00000,00000*7F

$GPRMC,070758,A,5544.2978,N,03738.9090,E,00.03,133.1,011211,,*1A

$GNGSA,06,06*5C

$MLG,22,0*76

$PGIO,291486,C,00010520,00,00,0.00,0.00,13.8,6.32,0000,0000,0000,0000,0000,0000,0000,0000,00000,00000*75

$GPRMC,070803,A,5544.2977,N,03738.9090,E,00.03,152.5,011211,,*17

$GNGSA,07,06*5D

$MLG,22,0*76

$PGIO,291486,C,00010521,00,00,0.00,0.00,13.8,6.32,0000,0000,0000,0000,0000,0000,0000,0000,00000,00000*74

$GPRMC,070808,A,5544.2976,N,03738.9092,E,00.02,081.1,011211,,*15

$GNGSA,07,06*5D

$MLG,22,0*76

$PGIO,291486,C,00010534,00,00,0.00,0.00,13.9,6.33,0000,0000,0000,0000,0000,0000,0000,0000,00000,00000*70

$GPRMC,070921.00,A,5544.1922,N,03738.9171,E,001.49120,165.7,011211,,,A*52

$GNGSA,06,08*52

$MLG,23,2*75

$PGIO,291486,C,00010522,00,00,0.00,0.00,13.8,6.32,0000,0000,0000,0000,0000,0000,0000,0000,00000,00000*77

$GPRMC,070813,A,5544.2975,N,03738.9093,E,00.01,153.2,011211,,*13

$GNGSA,06,06*5C

$MLG,22,0*76

$PGIO,291486,C,00010523,00,00,0.00,0.00,13.8,6.32,0000,0000,0000,0000,0000,0000,0000,0000,00000,00000*76

$GPRMC,070818,A,5544.2974,N,03738.9093,E,00.00,216.6,011211,,*1E

$GNGSA,07,06*5D

$MLG,22,0*76

$PGIO,291486,C,00010524,00,00,0.00,0.00,13.8,6.32,0000,0000,0000,0000,0000,0000,0000,0000,00000,00000*71

$GPRMC,070823,A,5544.2970,N,03738.9088,E,00.01,113.7,011211,,*1E

$GNGSA,07,06*5D

$MLG,22,0*76

$PGIO,291486,C,00010535,00,00,0.00,0.00,13.9,6.33,0000,0000,0000,0000,0000,0000,0000,0000,00000,00000*71

$GPRMC,070926.00,A,5544.1917,N,03738.9169,E,000.10548,164.0,011211,,,A*5B

$GNGSA,05,07*5E

$MLG,23,0*77

$PGIO,291486,C,00010525,00,00,0.00,0.00,13.8,6.32,0000,0000,0000,0000,0000,0000,0000,0000,00000,00000*70

$GPRMC,070828,A,5544.2965,N,03738.9089,E,00.04,038.7,011211,,*1D

$GNGSA,07,06*5D

$MLG,22,0*76

$PGIO,291486,C,00010526,00,00,0.00,0.00,13.8,6.32,0000,0000,0000,0000,0000,0000,0000,0000,00000,00000*73

$GPRMC,070833,A,5544.2960,N,03738.9091,E,00.05,176.0,011211,,*16

$GNGSA,07,06*5D

$MLG,22,0*76

$PGIO,291486,C,00010527,00,00,0.00,0.00,13.7,6.32,0000,0000,0000,0000,0000,0000,0000,0000,00000,00000*7D

$GPRMC,070838,A,5544.2957,N,03738.9091,E,00.05,166.1,011211,,*19

$GNGSA,07,06*5D

$MLG,22,0*76

$PGIO,291486,C,00010536,00,00,0.00,0.00,13.9,6.33,0000,0000,0000,0000,0000,0000,0000,0000,00000,00000*72

$GPRMC,070932.00,A,5544.1854,N,03738.9193,E,014.74517,166.4,011211,,,A*56

$GNGSA,05,07*5E

$MLG,23,27*42

$PGIO,291486,C,00010528,00,00,0.00,0.00,13.8,6.32,0000,0000,0000,0000,0000,0000,0000,0000,00000,00000*7D

$GPRMC,070843,A,5544.2958,N,03738.9088,E,00.04,081.5,011211,,*1F

$GNGSA,07,06*5D

$MLG,22,0*76

$PGIO,291486,C,00010529,00,00,0.00,0.00,13.7,6.32,0000,0000,0000,0000,0000,0000,0000,0000,00000,00000*73

$GPRMC,070848,A,5544.2962,N,03738.9086,E,00.02,186.1,011211,,*17

$GNGSA,07,06*5D

$MLG,22,0*76

$PGIO,291486,C,00010537,00,00,0.00,0.00,13.9,6.33,0000,0000,0000,0000,0000,0000,0000,0000,00000,00000*73

$GPRMC,070937.00,A,5544.1578,N,03738.9303,E,025.47903,168.7,011211,,,A*5D

$GNGSA,06,07*5D

$MLG,23,47*44

$PGIO,291486,C,00010538,00,00,0.00,0.00,13.9,6.33,0000,0000,0000,0000,0000,0000,0000,0000,00000,00000*7C

$GPRMC,070942.00,A,5544.1160,N,03738.9451,E,033.76220,165.9,011211,,,A*5E

$GNGSA,05,06*5F

$MLG,23,62*43

$PGIO,291486,C,00010539,00,00,0.00,0.00,13.8,6.33,0000,0000,0000,0000,0000,0000,0000,0000,00000,00000*7C

$GPRMC,070944.00,A,5544.0972,N,03738.9546,E,035.88270,162.0,011211,,,A*59

$GNGSA,06,08*52

$MLG,23,66*47

$PGIO,291486,C,00010540,00,00,0.00,0.00,13.9,6.32,0000,0000,0000,0000,0000,0000,0000,0000,00000,00000*72

$GPRMC,070949.00,A,5544.0495,N,03738.9828,E,038.00401,159.6,011211,,,A*56

$GNGSA,05,08*51

$MLG,23,70*40

$PGIO,291486,C,00010541,00,00,0.00,0.00,13.9,6.33,0000,0000,0000,0000,0000,0000,0000,0000,00000,00000*72

$GPRMC,070954.00,A,5543.9981,N,03739.0162,E,038.92138,159.8,011211,,,A*59

$GNGSA,07,06*5D

$MLG,23,72*42

$PGIO,291486,C,00010542,00,00,0.00,0.00,14.0,6.33,0000,0000,0000,0000,0000,0000,0000,0000,00000,00000*7F

$GPRMC,070959.00,A,5543.9487,N,03739.0510,E,037.42096,155.5,011211,,,A*58

$GNGSA,07,07*5C

$MLG,23,69*48

$PGIO,291486,C,00010543,00,00,0.00,0.00,14.0,6.33,0000,0000,0000,0000,0000,0000,0000,0000,00000,00000*7E

$GPRMC,071004.00,A,5543.9046,N,03739.0971,E,037.97203,145.5,011211,,,A*5D

$GNGSA,07,08*53

$MLG,23,70*40

$PGIO,291486,C,00010544,00,00,0.00,0.00,14.0,6.33,0000,0000,0000,0000,0000,0000,0000,0000,00000,00000*79

$GPRMC,071009.00,A,5543.8644,N,03739.1549,E,037.13903,135.3,011211,,,A*55

$GNGSA,06,08*52

$MLG,23,68*49

$PGIO,291486,C,00010545,00,00,0.00,0.00,14.0,6.33,0000,0000,0000,0000,0000,0000,0000,0000,00000,00000*78

$GPRMC,071014.00,A,5543.8274,N,03739.2206,E,038.28073,136.3,011211,,,A*5B

$GNGSA,07,07*5C

$MLG,23,70*40

$PGIO,291486,C,00010546,00,00,0.00,0.00,13.9,6.33,0000,0000,0000,0000,0000,0000,0000,0000,00000,00000*75

$GPRMC,071019.00,A,5543.7908,N,03739.2825,E,033.30381,136.1,011211,,,A*5C

$GNGSA,07,07*5C

$MLG,23,61*40

$PGIO,291486,C,00010547,00,00,0.00,0.00,14.0,6.33,0000,0000,0000,0000,0000,0000,0000,0000,00000,00000*7A

$GPRMC,071024.00,A,5543.7555,N,03739.3341,E,036.36823,153.4,011211,,,A*58

$GNGSA,04,04*5C

$MLG,24,67*41

$PGIO,291486,C,00010548,00,00,0.00,0.00,13.9,6.33,0000,0000,0000,0000,0000,0000,0000,0000,00000,00000*7B

$GPRMC,071029.00,A,5543.7202,N,03739.3733,E,022.11004,145.6,011211,,,A*59

$GNGSA,07,08*53

$MLG,24,40*44

$PGIO,291486,C,00010549,00,00,0.00,0.00,14.0,6.33,0000,0000,0000,0000,0000,0000,0000,0000,00000,00000*74

$GPRMC,071034.00,A,5543.7002,N,03739.3978,E,019.18458,147.7,011211,,,A*59

$GNGSA,07,08*53

$MLG,24,35*46

$PGIO,291486,C,00010550,00,00,0.00,0.00,14.0,6.33,0000,0000,0000,0000,0000,0000,0000,0000,00000,00000*7C

$GPRMC,071039.00,A,5543.6781,N,03739.4200,E,021.50117,155.4,011211,,,A*53

$GNGSA,05,06*5F

$MLG,24,39*4A

$PGIO,291486,C,00010551,00,00,0.00,0.00,14.0,6.33,0000,0000,0000,0000,0000,0000,0000,0000,00000,00000*7D

$GPRMC,071044.00,A,5543.6451,N,03739.4422,E,029.56112,162.8,011211,,,A*52

$GNGSA,06,07*5D

$MLG,24,54*41

$PGIO,291486,C,00010552,00,00,0.00,0.00,14.0,6.33,0000,0000,0000,0000,0000,0000,0000,0000,00000,00000*7E

$GPRMC,071049.00,A,5543.6057,N,03739.4705,E,033.23216,153.3,011211,,,A*5C

$GNGSA,05,07*5E

$MLG,24,61*47

$PGIO,291486,C,00010553,00,00,0.00,0.00,13.9,6.33,0000,0000,0000,0000,0000,0000,0000,0000,00000,00000*71

$GPRMC,071051.00,A,5543.5886,N,03739.4852,E,035.63042,154.9,011211,,,A*53

$GNGSA,06,08*52

$MLG,24,65*43

$PGIO,291486,C,00010554,00,00,0.00,0.00,14.0,6.33,0000,0000,0000,0000,0000,0000,0000,0000,00000,00000*78

$GPRMC,071056.00,A,5543.5398,N,03739.5143,E,039.37118,167.2,011211,,,A*50

$GNGSA,07,07*5C

$MLG,24,72*45

$PGIO,291486,C,00010555,00,00,0.00,0.00,14.0,6.34,0000,0000,0000,0000,0000,0000,0000,0000,00000,00000*7E

$GPRMC,071101.00,A,5543.4867,N,03739.5319,E,039.95857,170.0,011211,,,A*5A

$GNGSA,06,08*52

$MLG,24,73*44

$PGIO,291486,C,00010556,00,00,0.00,0.00,14.0,6.33,0000,0000,0000,0000,0000,0000,0000,0000,00000,00000*7A

$GPRMC,071106.00,A,5543.4339,N,03739.5461,E,038.22600,175.5,011211,,,A*54

$GNGSA,06,07*5D

$MLG,24,70*47

$PGIO,291486,C,00010557,00,00,0.00,0.00,14.0,6.33,0000,0000,0000,0000,0000,0000,0000,0000,00000,00000*7B

$GPRMC,071111.00,A,5543.3822,N,03739.5492,E,035.45779,178.8,011211,,,A*5B

$GNGSA,05,05*5C

$MLG,24,65*43

$PGIO,291486,C,00010558,00,00,0.00,0.00,13.9,6.34,0000,0000,0000,0000,0000,0000,0000,0000,00000,00000*7D

$GPRMC,071116.00,A,5543.3388,N,03739.5504,E,024.04048,179.3,011211,,,A*53

$GNGSA,06,08*52

$MLG,24,44*40

$PGIO,291486,C,00010559,00,00,0.00,0.00,14.0,6.34,0000,0000,0000,0000,0000,0000,0000,0000,00000,00000*72

$GPRMC,071121.00,A,5543.3143,N,03739.5496,E,013.99200,189.7,011211,,,A*5D

$GNGSA,05,07*5E

$MLG,24,25*47

$PGIO,291486,C,00010560,00,00,0.00,0.00,13.9,6.34,0000,0000,0000,0000,0000,0000,0000,0000,00000,00000*76

$GPRMC,071131.00,A,5543.2851,N,03739.5304,E,011.12179,202.0,011211,,,A*50

$PGIO,291486,C,00010562,00,00,0.00,0.00,0.76,6.10,0000,0000,0000,0000,0000,0000,0000,0000,00000,00000*78

$GPRMC,071141.00,A,5543.2818,N,03739.5200,E,000.10422,347.2,011211,,,A*54

$GNGSA,05,08*51

$MLG,24,0*70

$PGIO,291486,C,00010634,00,00,0.00,0.00,13.7,6.35,0000,0000,0000,0000,0000,0000,0000,0000,00000,00000*7B

$GPRMC,072009.00,A,5543.0411,N,03739.7853,E,000.02262,062.0,011211,,,A*54

$GNGSA,08,07*53

$MLG,25,0*71

$PGIO,291486,C,00010618,00,00,0.00,0.00,13.6,6.34,0000,0000,0000,0000,0000,0000,0000,0000,00000,00000*75

$GPRMC,071831,A,5543.0383,N,03739.7729,E,06.17,054.0,011211,,*18

$GNGSA,07,06*5D

$MLG,25,11*41

$PGIO,291486,C,00010619,00,00,0.00,0.00,13.7,6.35,0000,0000,0000,0000,0000,0000,0000,0000,00000,00000*74

$GPRMC,071841,A,5543.0398,N,03739.7777,E,00.13,246.5,011211,,*18

$GNGSA,08,07*53

$MLG,25,0*71

$PGIO,291486,C,00010620,00,00,0.00,0.00,13.6,6.35,0000,0000,0000,0000,0000,0000,0000,0000,00000,00000*7F

$GPRMC,071851,A,5543.0399,N,03739.7772,E,00.03,167.0,011211,,*19

$GNGSA,07,07*5C

$MLG,25,0*71

$PGIO,291486,C,00010635,00,00,0.00,0.00,13.7,6.35,0000,0000,0000,0000,0000,0000,0000,0000,00000,00000*7A

$GPRMC,072017.00,A,5543.0463,N,03739.8143,E,010.95164,120.5,011211,,,A*51

$GNGSA,08,06*52

$MLG,25,20*43

$PGIO,291486,C,00010636,00,00,0.00,0.00,13.8,6.35,0000,0000,0000,0000,0000,0000,0000,0000,00000,00000*76

$GPRMC,072018.00,A,5543.0443,N,03739.8185,E,013.00127,142.8,011211,,,A*57

$GNGSA,09,05*50

$MLG,25,24*47

$PGIO,291486,C,00010637,00,00,0.00,0.00,13.8,6.35,0000,0000,0000,0000,0000,0000,0000,0000,00000,00000*77

$GPRMC,072020.00,A,5543.0367,N,03739.8244,E,016.96051,163.7,011211,,,A*55

$GNGSA,09,05*50

$MLG,25,31*43

$PGIO,291486,C,00010621,00,00,0.00,0.00,13.4,6.35,0000,0000,0000,0000,0000,0000,0000,0000,00000,00000*7C

$GPRMC,071901,A,5543.0400,N,03739.7769,E,00.00,345.1,011211,,*10

$GNGSA,09,07*52

$MLG,25,0*71

$PGIO,291486,C,00010622,00,00,0.00,0.00,13.7,6.35,0000,0000,0000,0000,0000,0000,0000,0000,00000,00000*7C

$GPRMC,071911,A,5543.0401,N,03739.7768,E,00.01,184.2,011211,,*1C

$GNGSA,08,07*53

$MLG,25,0*71

$PGIO,291486,C,00010623,00,00,0.00,0.00,13.4,6.35,0000,0000,0000,0000,0000,0000,0000,0000,00000,00000*7E

$GPRMC,071916,A,5543.0406,N,03739.7831,E,01.44,057.1,011211,,*13

$GNGSA,07,07*5C

$MLG,25,2*73

$PGIO,291486,C,00010638,00,00,0.00,0.00,13.8,6.35,0000,0000,0000,0000,0000,0000,0000,0000,00000,00000*78

$GPRMC,072026.00,A,5543.0064,N,03739.8369,E,019.75105,171.0,011211,,,A*5B

$GNGSA,07,06*5D

$MLG,25,36*44

$PGIO,291486,C,00010624,00,00,0.00,0.00,13.7,6.35,0000,0000,0000,0000,0000,0000,0000,0000,00000,00000*7A

$GPRMC,071921,A,5543.0411,N,03739.7849,E,00.03,075.6,011211,,*1B

$GNGSA,09,07*52

$MLG,25,0*71

$PGIO,291486,C,00010625,00,00,0.00,0.00,13.7,6.35,0000,0000,0000,0000,0000,0000,0000,0000,00000,00000*7B

$GPRMC,071926,A,5543.0412,N,03739.7851,E,00.19,097.0,011211,,*17

$GNGSA,09,07*52

$MLG,25,0*71

$PGIO,291486,C,00010639,00,00,0.00,0.00,13.8,6.35,0000,0000,0000,0000,0000,0000,0000,0000,00000,00000*79

$GPRMC,072035.00,A,5542.9529,N,03739.8594,E,023.21621,171.0,011211,,,A*50

$GNGSA,05,04*5D

$MLG,25,42*47

$PGIO,291486,C,00010626,00,00,0.00,0.00,13.3,6.35,0000,0000,0000,0000,0000,0000,0000,0000,00000,00000*7C

$GPRMC,071931,A,5543.0412,N,03739.7854,E,00.09,358.0,011211,,*15

$GNGSA,09,07*52

$MLG,25,0*71

$PGIO,291486,C,00010627,00,00,0.00,0.00,13.7,6.35,0000,0000,0000,0000,0000,0000,0000,0000,00000,00000*79

$GPRMC,071936,A,5543.0412,N,03739.7852,E,00.06,122.1,011211,,*15

$GNGSA,09,07*52

$MLG,25,0*71

$PGIO,291486,C,00010628,00,00,0.00,0.00,13.5,6.35,0000,0000,0000,0000,0000,0000,0000,0000,00000,00000*74

$GPRMC,071941,A,5543.0410,N,03739.7852,E,00.04,342.1,011211,,*11

$GNGSA,09,07*52

$MLG,25,0*71

$PGIO,291486,C,00010640,00,00,0.00,0.00,13.8,6.35,0000,0000,0000,0000,0000,0000,0000,0000,00000,00000*77

$GPRMC,072041.00,A,5542.9151,N,03739.8776,E,020.77009,169.6,011211,,,A*55

$GNGSA,06,04*5E

$MLG,25,38*4A

$PGIO,291486,C,00010629,00,00,0.00,0.00,13.4,6.35,0000,0000,0000,0000,0000,0000,0000,0000,00000,00000*74

$GPRMC,071946,A,5543.0409,N,03739.7853,E,00.03,227.1,011211,,*1A

$GNGSA,09,07*52

$MLG,25,0*71

$PGIO,291486,C,00010630,00,00,0.00,0.00,13.7,6.35,0000,0000,0000,0000,0000,0000,0000,0000,00000,00000*7F

$GPRMC,071951,A,5543.0409,N,03739.7856,E,00.01,191.7,011211,,*13

$GNGSA,09,07*52

$MLG,25,0*71

$PGIO,291486,C,00010631,00,00,0.00,0.00,13.4,6.35,0000,0000,0000,0000,0000,0000,0000,0000,00000,00000*7D

$GPRMC,071956,A,5543.0409,N,03739.7855,E,00.01,006.5,011211,,*1A

$GNGSA,09,07*52

$MLG,25,0*71

$PGIO,291486,C,00010641,00,00,0.00,0.00,13.8,6.35,0000,0000,0000,0000,0000,0000,0000,0000,00000,00000*76

$GPRMC,072047.00,A,5542.8897,N,03739.8872,E,013.12656,174.2,011211,,,A*5D

$GNGSA,06,07*5D

$MLG,25,24*47

$PGIO,291486,C,00010632,00,00,0.00,0.00,13.5,6.35,0000,0000,0000,0000,0000,0000,0000,0000,00000,00000*7F

$GPRMC,072001,A,5543.0408,N,03739.7854,E,00.01,017.5,011211,,*12

$GNGSA,08,07*53

$MLG,25,0*71

$PGIO,291486,C,00010633,00,00,0.00,0.00,13.7,6.35,0000,0000,0000,0000,0000,0000,0000,0000,00000,00000*7C

$GPRMC,072006,A,5543.0409,N,03739.7853,E,00.02,266.3,011211,,*12

$GNGSA,08,07*53

$MLG,25,0*71

$PGIO,291486,C,00010642,00,00,0.00,0.00,13.7,6.35,0000,0000,0000,0000,0000,0000,0000,0000,00000,00000*7A

$GPRMC,072051.00,A,5542.8794,N,03739.8976,E,007.43996,164.9,011211,,,A*5B

$GNGSA,08,05*51

$MLG,25,13*43

$PGIO,291486,C,00010643,00,00,0.00,0.00,13.7,6.35,0000,0000,0000,0000,0000,0000,0000,0000,00000,00000*7B

$GPRMC,072058.00,A,5542.8750,N,03739.9018,E,000.88189,208.2,011211,,,A*5E

$GNGSA,08,03*57

$MLG,25,1*70

$PGIO,291486,C,00010644,00,00,0.00,0.00,13.7,6.35,0000,0000,0000,0000,0000,0000,0000,0000,00000,00000*7C

$GPRMC,072103.00,A,5542.8746,N,03739.9019,E,000.05831,000.2,011211,,,A*52

$GNGSA,09,06*53

$MLG,25,0*71

$PGIO,291486,C,00010645,00,00,0.00,0.00,13.7,6.35,0000,0000,0000,0000,0000,0000,0000,0000,00000,00000*7D

$GPRMC,072108.00,A,5542.8744,N,03739.9018,E,000.15731,192.5,011211,,,A*59

$GNGSA,09,05*50

$MLG,25,0*71

$PGIO,291486,C,00010646,00,00,0.00,0.00,13.7,6.35,0000,0000,0000,0000,0000,0000,0000,0000,00000,00000*7E

$GPRMC,072113.00,A,5542.8743,N,03739.9020,E,000.13368,009.1,011211,,,A*56

$GNGSA,08,05*51

$MLG,25,0*71

$PGIO,291486,C,00010647,00,00,0.00,0.00,13.7,6.35,0000,0000,0000,0000,0000,0000,0000,0000,00000,00000*7F

$GPRMC,072118.00,A,5542.8741,N,03739.9023,E,000.10544,062.3,011211,,,A*58

$GNGSA,07,06*5D

$MLG,25,0*71

$PGIO,291486,C,00010648,00,00,0.00,0.00,13.7,6.35,0000,0000,0000,0000,0000,0000,0000,0000,00000,00000*70

$GPRMC,072123.00,A,5542.8740,N,03739.9024,E,000.08601,203.2,011211,,,A*59

$GNGSA,08,07*53

$MLG,25,0*71

$PGIO,291486,C,00010649,00,00,0.00,0.00,13.8,6.36,0000,0000,0000,0000,0000,0000,0000,0000,00000,00000*7D

$GPRMC,072128.00,A,5542.8738,N,03739.9024,E,000.07455,173.8,011211,,,A*5F

$GNGSA,05,06*5F

$MLG,25,0*71

$PGIO,291486,C,00010650,00,00,0.00,0.00,13.7,6.35,0000,0000,0000,0000,0000,0000,0000,0000,00000,00000*79

$GPRMC,072134.00,A,5542.8735,N,03739.9027,E,000.05925,221.6,011211,,,A*5E

$GNGSA,09,07*52

$MLG,25,0*71

$PGIO,291486,C,00010651,00,00,0.00,0.00,13.7,6.36,0000,0000,0000,0000,0000,0000,0000,0000,00000,00000*7B

$GPRMC,072139.00,A,5542.8734,N,03739.9033,E,000.05918,031.0,011211,,,A*5C

$GNGSA,08,05*51

$MLG,25,0*71

$PGIO,291486,C,00010652,00,00,0.00,0.00,13.8,6.36,0000,0000,0000,0000,0000,0000,0000,0000,00000,00000*77

$GPRMC,072144.00,A,5542.8600,N,03739.9021,E,009.97975,176.2,011211,,,A*5A

$GNGSA,07,04*5F

$MLG,25,18*48

$PGIO,291486,C,00010653,00,00,0.00,0.00,13.9,6.36,0000,0000,0000,0000,0000,0000,0000,0000,00000,00000*77

$GPRMC,072149.00,A,5542.8380,N,03739.8984,E,020.45961,168.4,011211,,,A*55

$GNGSA,05,04*5D

$MLG,26,37*46

$PGIO,291486,C,00010654,00,00,0.00,0.00,13.9,6.36,0000,0000,0000,0000,0000,0000,0000,0000,00000,00000*70

$GPRMC,072154.00,A,5542.8068,N,03739.9067,E,022.98473,170.3,011211,,,A*5B

$GNGSA,07,06*5D

$MLG,26,42*44

$PGIO,291486,C,00010655,00,00,0.00,0.00,13.9,6.36,0000,0000,0000,0000,0000,0000,0000,0000,00000,00000*71

$GPRMC,072159.00,A,5542.7696,N,03739.9170,E,029.25294,169.7,011211,,,A*57

$GNGSA,08,05*51

$MLG,26,54*43

$PGIO,291486,C,00010656,00,00,0.00,0.00,13.9,6.36,0000,0000,0000,0000,0000,0000,0000,0000,00000,00000*72

$GPRMC,072204.00,A,5542.7331,N,03739.9275,E,020.65041,165.3,011211,,,A*5D

$GNGSA,06,04*5E

$MLG,26,38*49

$PGIO,291486,C,00010657,00,00,0.00,0.00,13.4,6.36,0000,0000,0000,0000,0000,0000,0000,0000,00000,00000*7E

$GPRMC,072209.00,A,5542.7116,N,03739.9331,E,009.47739,167.2,011211,,,A*56

$GNGSA,06,04*5E

$MLG,26,17*44

$PGIO,291486,C,00010658,00,00,0.00,0.00,13.7,6.36,0000,0000,0000,0000,0000,0000,0000,0000,00000,00000*72

$GPRMC,072214.00,A,5542.7046,N,03739.9378,E,002.35668,178.4,011211,,,A*50

$GNGSA,08,06*52

$MLG,26,4*76

$PGIO,291486,C,00010659,00,00,0.00,0.00,13.8,6.36,0000,0000,0000,0000,0000,0000,0000,0000,00000,00000*7C

$GPRMC,072219.00,A,5542.7019,N,03739.9367,E,001.37014,202.1,011211,,,A*5E

$GNGSA,08,05*51

$MLG,26,2*70

$PGIO,291486,C,00010660,00,00,0.00,0.00,13.6,6.36,0000,0000,0000,0000,0000,0000,0000,0000,00000,00000*78

$GPRMC,072224.00,A,5542.7017,N,03739.9365,E,000.06685,144.5,011211,,,A*54

$GNGSA,09,07*52

$MLG,26,0*72

$PGIO,291486,C,00010661,00,00,0.00,0.00,13.3,6.36,0000,0000,0000,0000,0000,0000,0000,0000,00000,00000*7C

$GPRMC,072229.00,A,5542.7017,N,03739.9361,E,000.15730,318.5,011211,,,A*5B

$GNGSA,08,06*52

$MLG,26,0*72

$PGIO,291486,C,00010662,00,00,0.00,0.00,13.7,6.36,0000,0000,0000,0000,0000,0000,0000,0000,00000,00000*7B

$GPRMC,072234.00,A,5542.7016,N,03739.9356,E,000.13227,354.7,011211,,,A*5D

$GNGSA,08,07*53

$MLG,26,0*72

$PGIO,291486,C,00010663,00,00,0.00,0.00,13.7,6.36,0000,0000,0000,0000,0000,0000,0000,0000,00000,00000*7A

$GPRMC,072240.00,A,5542.7015,N,03739.9350,E,000.09600,340.9,011211,,,A*5A

$GNGSA,09,06*53

$MLG,26,0*72

$PGIO,291486,C,00010664,00,00,0.00,0.00,13.6,6.36,0000,0000,0000,0000,0000,0000,0000,0000,00000,00000*7C

$GPRMC,072245.00,A,5542.7012,N,03739.9347,E,000.06683,148.6,011211,,,A*5F

$GNGSA,08,07*53

$MLG,26,0*72

$PGIO,291486,C,00010665,00,00,0.00,0.00,13.6,6.36,0000,0000,0000,0000,0000,0000,0000,0000,00000,00000*7D

$GPRMC,072250.00,A,5542.6981,N,03739.9340,E,002.18391,168.9,011211,,,A*58

$GNGSA,06,05*5F

$MLG,26,4*76

$PGIO,291486,C,00010666,00,00,0.00,0.00,13.8,6.36,0000,0000,0000,0000,0000,0000,0000,0000,00000,00000*70

$GPRMC,072255.00,A,5542.6847,N,03739.9379,E,009.13299,193.2,011211,,,A*5A

$GNGSA,05,05*5C

$MLG,26,16*45

$PGIO,291486,C,00010667,00,00,0.00,0.00,13.6,6.36,0000,0000,0000,0000,0000,0000,0000,0000,00000,00000*7F

$GPRMC,072257.00,A,5542.6794,N,03739.9333,E,011.02116,225.6,011211,,,A*50

$GNGSA,06,06*5C

$MLG,26,20*40

$PGIO,291486,C,00010668,00,00,0.00,0.00,13.7,6.36,0000,0000,0000,0000,0000,0000,0000,0000,00000,00000*71

$GPRMC,072302.00,A,5542.6710,N,03739.9188,E,003.10628,236.8,011211,,,A*59

$GNGSA,06,06*5C

$MLG,26,5*77

$PGIO,291486,C,00010669,00,00,0.00,0.00,13.7,6.36,0000,0000,0000,0000,0000,0000,0000,0000,00000,00000*70

$GPRMC,072307.00,A,5542.6692,N,03739.9161,E,000.29160,088.4,011211,,,A*59

$GNGSA,07,07*5C

$MLG,26,0*72

$PGIO,291486,C,00010670,00,00,0.00,0.00,7.10,6.29,0000,0000,0000,0000,0000,0000,0000,0000,00000,00000*75

$GPRMC,072312.00,A,5542.6689,N,03739.9160,E,000.16243,166.3,011211,,,A*5E

$GNGSA,06,07*5D

$MLG,26,0*72

$PGIO,291486,C,00010671,00,00,0.00,0.00,0.26,6.12,0000,0000,0000,0000,0000,0000,0000,0000,00000,00000*7E

$PGIO,291486,C,00010673,00,00,0.00,0.00,0.06,6.01,0000,0000,0000,0000,0000,0000,0000,0000,00000,00000*7C

$GPRMC,072350.00,A,5542.6679,N,03739.9154,E,000.02964,350.0,011211,,,A*5F

$GNGSA,07,05*5E

$MLG,26,0*72

$PGIO,291486,C,00010674,00,00,0.00,0.00,0.03,5.98,0000,0000,0000,0000,0000,0000,0000,0000,00000,00000*7D

$GPRMC,072450.00,A,5542.6659,N,03739.9141,E,000.01085,330.0,011211,,,A*5D

$GNGSA,07,07*5C

$MLG,26,0*72

$PGIO,291486,C,00010675,00,00,0.00,0.00,0.00,5.95,0000,0000,0000,0000,0000,0000,0000,0000,00000,00000*72

$GPRMC,072550.00,A,5542.6648,N,03739.9110,E,000.04475,104.9,011211,,,A*5A

$GNGSA,06,07*5D

$MLG,26,0*72

$PGIO,291486,C,00010676,00,00,0.00,0.00,0.00,5.94,0000,0000,0000,0000,0000,0000,0000,0000,00000,00000*70

$GPRMC,072650.00,A,5542.6660,N,03739.9092,E,000.06535,124.5,011211,,,A*51

$GNGSA,05,06*5F

$MLG,26,0*72

$PGIO,291486,C,00010677,00,00,0.00,0.00,13.6,6.23,0000,0000,0000,0000,0000,0000,0000,0000,00000,00000*7A

$GPRMC,072750.00,A,5542.6623,N,03739.9096,E,000.09143,265.2,011211,,,A*58

$GNGSA,08,07*53

$MLG,26,0*72

$PGIO,291486,C,00010672,00,00,0.00,0.00,0.12,6.09,0000,0000,0000,0000,0000,0000,0000,0000,00000,00000*70

$GPRMC,072322,A,5542.6684,N,03739.9161,E,00.03,234.4,011211,,*10

$GNGSA,07,05*5E

$MLG,26,0*72

$PGIO,291486,C,00010678,00,00,0.00,0.00,13.6,6.24,0000,0000,0000,0000,0000,0000,0000,0000,00000,00000*72

$GPRMC,072755.00,A,5542.6622,N,03739.9096,E,000.09416,171.6,011211,,,A*5B

$GNGSA,07,05*5E

$MLG,26,0*72

$PGIO,291486,C,00010679,00,00,0.00,0.00,13.6,6.25,0000,0000,0000,0000,0000,0000,0000,0000,00000,00000*72

$GPRMC,072800.00,A,5542.6619,N,03739.9098,E,000.09651,058.7,011211,,,A*58

$GNGSA,07,06*5D

$MLG,26,0*72

$PGIO,291486,C,00010680,00,00,0.00,0.00,13.6,6.25,0000,0000,0000,0000,0000,0000,0000,0000,00000,00000*74

$GPRMC,072806.00,A,5542.6617,N,03739.9100,E,000.10031,346.0,011211,,,A*53

$GNGSA,08,07*53

$MLG,26,0*72

$PGIO,291486,C,00010681,00,00,0.00,0.00,13.6,6.26,0000,0000,0000,0000,0000,0000,0000,0000,00000,00000*76

$GPRMC,072811.00,A,5542.6617,N,03739.9102,E,000.10051,001.5,011211,,,A*54

$GNGSA,08,07*53

$MLG,26,0*72

$PGIO,291486,C,00010682,00,00,0.00,0.00,13.6,6.27,0000,0000,0000,0000,0000,0000,0000,0000,00000,00000*74

$GPRMC,072816.00,A,5542.6614,N,03739.9100,E,000.10342,353.0,011211,,,A*52

$GNGSA,07,08*53

$MLG,26,0*72

$PGIO,291486,C,00010683,00,00,0.00,0.00,13.6,6.27,0000,0000,0000,0000,0000,0000,0000,0000,00000,00000*75

$GPRMC,072822.00,A,5542.6610,N,03739.9099,E,000.10936,240.3,011211,,,A*59

$GNGSA,08,08*5C

$MLG,26,0*72

$PGIO,291486,C,00010684,00,00,0.00,0.00,13.6,6.28,0000,0000,0000,0000,0000,0000,0000,0000,00000,00000*7D

$GPRMC,072827.00,A,5542.6612,N,03739.9098,E,000.10547,139.9,011211,,,A*52

$GNGSA,07,08*53

$MLG,26,0*72

$PGIO,291486,C,00010685,00,00,0.00,0.00,13.6,6.28,0000,0000,0000,0000,0000,0000,0000,0000,00000,00000*7C

$GPRMC,072832.00,A,5542.6614,N,03739.9095,E,000.09209,058.6,011211,,,A*51

$GNGSA,07,07*5C

$MLG,26,0*72

$PGIO,291486,C,00010686,00,00,0.00,0.00,13.6,6.29,0000,0000,0000,0000,0000,0000,0000,0000,00000,00000*7E

$GPRMC,072837.00,A,5542.6615,N,03739.9095,E,000.07617,145.3,011211,,,A*58

$GNGSA,07,08*53

$MLG,26,0*72

$PGIO,291486,C,00010687,00,00,0.00,0.00,13.6,6.29,0000,0000,0000,0000,0000,0000,0000,0000,00000,00000*7F

$GPRMC,072842.00,A,5542.6615,N,03739.9094,E,000.07037,229.2,011211,,,A*57

$GNGSA,07,08*53

$MLG,26,0*72

$PGIO,291486,C,00010688,00,00,0.00,0.00,13.6,6.30,0000,0000,0000,0000,0000,0000,0000,0000,00000,00000*78

$GPRMC,072847.00,A,5542.6613,N,03739.9093,E,000.07123,020.5,011211,,,A*5B

$GNGSA,07,07*5C

$MLG,26,0*72

$PGIO,291486,C,00010689,00,00,0.00,0.00,13.6,6.30,0000,0000,0000,0000,0000,0000,0000,0000,00000,00000*79

$GPRMC,072852.00,A,5542.6612,N,03739.9092,E,000.07374,034.8,011211,,,A*57

$GNGSA,08,07*53

$MLG,26,0*72

$PGIO,291486,C,00010690,00,00,0.00,0.00,13.6,6.30,0000,0000,0000,0000,0000,0000,0000,0000,00000,00000*71

$GPRMC,072858.00,A,5542.6610,N,03739.9094,E,000.07456,341.9,011211,,,A*5E

$GNGSA,08,08*5C

$MLG,26,0*72

$PGIO,291486,C,00010691,00,00,0.00,0.00,13.6,6.31,0000,0000,0000,0000,0000,0000,0000,0000,00000,00000*71

$GPRMC,072903.00,A,5542.6608,N,03739.9095,E,000.07754,201.0,011211,,,A*54

$GNGSA,08,09*5D

$MLG,26,0*72

$PGIO,291486,C,00010692,00,00,0.00,0.00,13.6,6.31,0000,0000,0000,0000,0000,0000,0000,0000,00000,00000*72

$GPRMC,072908.00,A,5542.6608,N,03739.9097,E,000.07807,017.4,011211,,,A*55

$GNGSA,06,09*53

$MLG,26,0*72

$PGIO,291486,C,00010693,00,00,0.00,0.00,13.6,6.31,0000,0000,0000,0000,0000,0000,0000,0000,00000,00000*73

$GPRMC,072913.00,A,5542.6606,N,03739.9101,E,000.08238,157.2,011211,,,A*55

$GNGSA,07,09*52

$MLG,26,0*72

$PGIO,291486,C,00010694,00,00,0.00,0.00,13.5,6.31,0000,0000,0000,0000,0000,0000,0000,0000,00000,00000*77

$GPRMC,072918.00,A,5542.6607,N,03739.9103,E,000.07999,314.2,011211,,,A*57

$GNGSA,07,08*53

$MLG,26,0*72

$PGIO,291486,C,00010695,00,00,0.00,0.00,13.6,6.32,0000,0000,0000,0000,0000,0000,0000,0000,00000,00000*76

$GPRMC,072923.00,A,5542.6608,N,03739.9099,E,000.07194,203.5,011211,,,A*57

$GNGSA,07,08*53

$MLG,26,0*72

$PGIO,291486,C,00010696,00,00,0.00,0.00,13.8,6.32,0000,0000,0000,0000,0000,0000,0000,0000,00000,00000*7B

$GPRMC,072928.00,A,5542.6609,N,03739.9096,E,000.06326,252.1,011211,,,A*58

$GNGSA,08,07*53

$MLG,26,0*72

$PGIO,291486,C,00010697,00,00,0.00,0.00,13.8,6.32,0000,0000,0000,0000,0000,0000,0000,0000,00000,00000*7A

$GPRMC,072933.00,A,5542.6588,N,03739.9091,E,001.76537,229.6,011211,,,A*54

$GNGSA,01,04*59

$MLG,26,3*71

$PGIO,291486,C,00010698,00,00,0.00,0.00,13.8,6.33,0000,0000,0000,0000,0000,0000,0000,0000,00000,00000*74

$GPRMC,072938.00,A,5542.6433,N,03739.8833,E,008.65894,223.5,011211,,,A*59

$GNGSA,07,07*5C

$MLG,26,16*45

$PGIO,291486,C,00010699,00,00,0.00,0.00,13.4,6.33,0000,0000,0000,0000,0000,0000,0000,0000,00000,00000*79

$GPRMC,072943.00,A,5542.6340,N,03739.8672,E,004.10959,228.0,011211,,,A*5D

$GNGSA,06,07*5D

$MLG,26,7*75

$PGIO,291486,C,00010700,00,00,0.00,0.00,13.7,6.33,0000,0000,0000,0000,0000,0000,0000,0000,00000,00000*7B

$GPRMC,072948.00,A,5542.6331,N,03739.8651,E,000.06811,198.9,011211,,,A*5E

$GNGSA,06,08*52

$MLG,26,0*72

$PGIO,291486,C,00010701,00,00,0.00,0.00,12.9,6.33,0000,0000,0000,0000,0000,0000,0000,0000,00000,00000*75

$GPRMC,072953.00,A,5542.6328,N,03739.8652,E,000.17060,233.9,011211,,,A*53

$GNGSA,05,08*51

$MLG,26,0*72

$PGIO,291486,C,00010702,00,00,0.00,0.00,13.4,6.33,0000,0000,0000,0000,0000,0000,0000,0000,00000,00000*7A

$GPRMC,072958.00,A,5542.6326,N,03739.8590,E,002.34799,267.0,011211,,,A*51

$GNGSA,05,07*5E

$MLG,26,4*76

$PGIO,291486,C,00010703,00,00,0.00,0.00,13.7,6.34,0000,0000,0000,0000,0000,0000,0000,0000,00000,00000*7F

$GPRMC,073004.00,A,5542.6333,N,03739.8517,E,004.60561,326.6,011211,,,A*5B

$PGIO,291486,C,00010705,00,00,0.00,0.00,13.7,6.34,0000,0000,0000,0000,0000,0000,0000,0000,00000,00000*79

$GPRMC,073007.00,A,5542.6372,N,03739.8448,E,005.39366,313.9,011211,,,A*53

$GNGSA,04,05*5D

$MLG,26,9*7B

$PGIO,291486,C,00010706,00,00,0.00,0.00,13.7,6.34,0000,0000,0000,0000,0000,0000,0000,0000,00000,00000*7A

$GPRMC,073008.00,A,5542.6387,N,03739.8439,E,004.49433,340.6,011211,,,A*58

$GNGSA,04,05*5D

$MLG,26,8*7A

$PGIO,291486,C,00010707,00,00,0.00,0.00,13.7,6.34,0000,0000,0000,0000,0000,0000,0000,0000,00000,00000*7B

$GPRMC,073010.00,A,5542.6422,N,03739.8419,E,007.18736,322.8,011211,,,A*50

$GNGSA,03,06*59

$MLG,26,13*40

$PGIO,291486,C,00010708,00,00,0.00,0.00,13.7,6.34,0000,0000,0000,0000,0000,0000,0000,0000,00000,00000*74

$GPRMC,073015.00,A,5542.6495,N,03739.8222,E,004.81624,308.7,011211,,,A*51

$GNGSA,04,05*5D

$MLG,26,8*7A

$PGIO,291486,C,00010709,00,00,0.00,0.00,13.7,6.34,0000,0000,0000,0000,0000,0000,0000,0000,00000,00000*75

$GPRMC,073018.00,A,5542.6507,N,03739.8136,E,005.64336,248.4,011211,,,A*5A

$GNGSA,05,04*5D

$MLG,26,10*43

$PGIO,291486,C,00010710,00,00,0.00,0.00,13.7,6.34,0000,0000,0000,0000,0000,0000,0000,0000,00000,00000*7D

$GPRMC,073020.00,A,5542.6510,N,03739.8098,E,006.74662,264.9,011211,,,A*57

$GNGSA,03,03*5C

$MLG,26,12*41

$PGIO,291486,C,00010711,00,00,0.00,0.00,13.8,6.34,0000,0000,0000,0000,0000,0000,0000,0000,00000,00000*73

$GPRMC,073023.00,A,5542.6558,N,03739.7921,E,009.11055,301.1,011211,,,A*58

$GNGSA,01,06*5B

$MLG,26,16*45

$PGIO,291486,C,00010712,00,00,0.00,0.00,13.8,6.34,0000,0000,0000,0000,0000,0000,0000,0000,00000,00000*70

$GPRMC,073024.00,A,5542.6598,N,03739.7900,E,010.45213,345.3,011211,,,A*5B

$GNGSA,04,03*5B

$MLG,26,19*4A

$PGIO,291486,C,00010713,00,00,0.00,0.00,13.8,6.34,0000,0000,0000,0000,0000,0000,0000,0000,00000,00000*71

$GPRMC,073029.00,A,5542.6783,N,03739.7871,E,009.68973,358.5,011211,,,A*59

$GNGSA,07,05*5E

$MLG,26,17*44

$PGIO,291486,C,00010714,00,00,0.00,0.00,13.8,6.35,0000,0000,0000,0000,0000,0000,0000,0000,00000,00000*77

$GPRMC,073034.00,A,5542.6949,N,03739.7870,E,008.33649,353.0,011211,,,A*5B

$GNGSA,06,05*5F

$MLG,26,15*46

$PGIO,291486,C,00010715,00,00,0.00,0.00,13.8,6.35,0000,0000,0000,0000,0000,0000,0000,0000,00000,00000*76

$GPRMC,073039.00,A,5542.7076,N,03739.7857,E,009.86160,358.0,011211,,,A*5F

$GNGSA,07,08*53

$MLG,26,18*4B

$PGIO,291486,C,00010716,00,00,0.00,0.00,13.8,6.35,0000,0000,0000,0000,0000,0000,0000,0000,00000,00000*75

$GPRMC,073044.00,A,5542.7248,N,03739.7837,E,009.22902,357.8,011211,,,A*59

$GNGSA,06,08*52

$MLG,26,17*44

$PGIO,291486,C,00010717,00,00,0.00,0.00,13.7,6.35,0000,0000,0000,0000,0000,0000,0000,0000,00000,00000*7B

$GPRMC,073049.00,A,5542.7385,N,03739.7816,E,008.06495,345.7,011211,,,A*5F

$GNGSA,07,08*53

$MLG,26,14*47

$PGIO,291486,C,00010718,00,00,0.00,0.00,13.7,6.35,0000,0000,0000,0000,0000,0000,0000,0000,00000,00000*74

$GPRMC,073054.00,A,5542.7445,N,03739.7795,E,002.14627,337.7,011211,,,A*5B

$GNGSA,08,09*5D

$MLG,26,3*71

$PGIO,291486,C,00010719,00,00,0.00,0.00,13.8,6.35,0000,0000,0000,0000,0000,0000,0000,0000,00000,00000*7A

$GPRMC,073059.00,A,5542.7506,N,03739.7772,E,006.76344,347.7,011211,,,A*5E

$GNGSA,08,08*5C

$MLG,26,12*41

$PGIO,291486,C,00010720,00,00,0.00,0.00,13.8,6.35,0000,0000,0000,0000,0000,0000,0000,0000,00000,00000*70

$GPRMC,073104.00,A,5542.7624,N,03739.7726,E,012.63672,345.4,011211,,,A*55

$GNGSA,05,08*51

$MLG,26,23*43

$PGIO,291486,C,00010721,00,00,0.00,0.00,13.8,6.35,0000,0000,0000,0000,0000,0000,0000,0000,00000,00000*71

$GPRMC,073109.00,A,5542.7862,N,03739.7628,E,018.93816,349.0,011211,,,A*5A

$GNGSA,05,06*5F

$MLG,26,35*44

$PGIO,291486,C,00010722,00,00,0.00,0.00,13.8,6.35,0000,0000,0000,0000,0000,0000,0000,0000,00000,00000*72

$GPRMC,073114.00,A,5542.8142,N,03739.7500,E,019.90586,344.6,011211,,,A*56

$GNGSA,05,07*5E

$MLG,26,36*47

$PGIO,291486,C,00010723,00,00,0.00,0.00,13.8,6.35,0000,0000,0000,0000,0000,0000,0000,0000,00000,00000*73

$GPRMC,073119.00,A,5542.8421,N,03739.7349,E,019.36017,348.1,011211,,,A*5A

$GNGSA,05,05*5C

$MLG,26,35*44

$PGIO,291486,C,00010724,00,00,0.00,0.00,13.8,6.35,0000,0000,0000,0000,0000,0000,0000,0000,00000,00000*74

$GPRMC,073124.00,A,5542.8693,N,03739.7253,E,017.31368,342.7,011211,,,A*5B

$GNGSA,05,05*5C

$MLG,26,32*43

$PGIO,291486,C,00010725,00,00,0.00,0.00,13.8,6.35,0000,0000,0000,0000,0000,0000,0000,0000,00000,00000*75

$GPRMC,073129.00,A,5542.8965,N,03739.7093,E,016.73504,346.8,011211,,,A*5E

$GNGSA,06,07*5D

$MLG,26,30*41

$PGIO,291486,C,00010726,00,00,0.00,0.00,13.8,6.35,0000,0000,0000,0000,0000,0000,0000,0000,00000,00000*76

$GPRMC,073134.00,A,5542.9216,N,03739.6999,E,020.53289,346.9,011211,,,A*5A

$GNGSA,05,07*5E

$MLG,26,38*49

$PGIO,291486,C,00010727,00,00,0.00,0.00,13.8,6.35,0000,0000,0000,0000,0000,0000,0000,0000,00000,00000*77

$GPRMC,073139.00,A,5542.9517,N,03739.6895,E,023.60860,347.8,011211,,,A*52

$GNGSA,04,06*5E

$MLG,27,43*44

$PGIO,291486,C,00010728,00,00,0.00,0.00,13.7,6.35,0000,0000,0000,0000,0000,0000,0000,0000,00000,00000*77

$GPRMC,073145.00,A,5542.9791,N,03739.6783,E,008.85836,345.5,011211,,,A*53

$GNGSA,07,07*5C

$MLG,27,16*44

$PGIO,291486,C,00010729,00,00,0.00,0.00,13.8,6.35,0000,0000,0000,0000,0000,0000,0000,0000,00000,00000*79

$GPRMC,073150.00,A,5542.9850,N,03739.6749,E,002.43361,339.2,011211,,,A*56

$GNGSA,07,07*5C

$MLG,27,4*77

$PGIO,291486,C,00010730,00,00,0.00,0.00,13.8,6.35,0000,0000,0000,0000,0000,0000,0000,0000,00000,00000*71

$GPRMC,073152.00,A,5542.9896,N,03739.6749,E,013.00370,013.2,011211,,,A*52

$GNGSA,06,05*5F

$MLG,27,24*45

$PGIO,291486,C,00010731,00,00,0.00,0.00,13.7,6.35,0000,0000,0000,0000,0000,0000,0000,0000,00000,00000*7F

$GPRMC,073155.00,A,5543.0014,N,03739.6842,E,018.44857,029.9,011211,,,A*5C

$GNGSA,06,08*52

$MLG,27,34*44

$PGIO,291486,C,00010732,00,00,0.00,0.00,13.8,6.35,0000,0000,0000,0000,0000,0000,0000,0000,00000,00000*73

$GPRMC,073200.00,A,5543.0210,N,03739.7122,E,020.33560,048.6,011211,,,A*5D

$GNGSA,05,06*5F

$MLG,27,37*47

$PGIO,291486,C,00010733,00,00,0.00,0.00,13.8,6.36,0000,0000,0000,0000,0000,0000,0000,0000,00000,00000*71

$GPRMC,073205.00,A,5543.0365,N,03739.7532,E,018.04163,054.8,011211,,,A*55

$GNGSA,06,07*5D

$MLG,27,33*43

$PGIO,291486,C,00010734,00,00,0.00,0.00,13.7,6.36,0000,0000,0000,0000,0000,0000,0000,0000,00000,00000*79

$GPRMC,073210.00,A,5543.0435,N,03739.7755,E,003.26907,054.5,011211,,,A*5D

$GNGSA,05,07*5E

$MLG,27,6*75

$PGIO,291486,C,00010735,00,00,0.00,0.00,13.7,6.36,0000,0000,0000,0000,0000,0000,0000,0000,00000,00000*78

$GPRMC,073215.00,A,5543.0438,N,03739.7771,E,000.23481,002.8,011211,,,A*58

$GNGSA,06,06*5C

$MLG,27,0*73

$PGIO,291486,C,00010736,00,00,0.00,0.00,13.7,6.36,0000,0000,0000,0000,0000,0000,0000,0000,00000,00000*7B

$GPRMC,073220.00,A,5543.0439,N,03739.7770,E,000.09737,326.5,011211,,,A*50

$GNGSA,08,08*5C

$MLG,27,0*73

$PGIO,291486,C,00010737,00,00,0.00,0.00,13.7,6.36,0000,0000,0000,0000,0000,0000,0000,0000,00000,00000*7A

$GPRMC,073225.00,A,5543.0440,N,03739.7768,E,000.05125,308.3,011211,,,A*51

$GNGSA,07,08*53

$MLG,27,0*73

$PGIO,291486,C,00010738,00,00,0.00,0.00,13.7,6.36,0000,0000,0000,0000,0000,0000,0000,0000,00000,00000*75

$GPRMC,073230.00,A,5543.0440,N,03739.7766,E,000.05712,002.1,011211,,,A*52

$GNGSA,08,08*5C

$MLG,27,0*73

$PGIO,291486,C,00010739,00,00,0.00,0.00,13.7,6.36,0000,0000,0000,0000,0000,0000,0000,0000,00000,00000*74

$GPRMC,073235.00,A,5543.0440,N,03739.7763,E,000.05441,322.4,011211,,,A*53

$GNGSA,07,08*53

$MLG,27,0*73

$PGIO,291486,C,00010740,00,00,0.00,0.00,13.7,6.36,0000,0000,0000,0000,0000,0000,0000,0000,00000,00000*7A

$GPRMC,073240.00,A,5543.0438,N,03739.7762,E,000.04957,154.8,011211,,,A*5B

$GNGSA,06,07*5D

$MLG,27,0*73

$PGIO,291486,C,00010741,00,00,0.00,0.00,13.7,6.36,0000,0000,0000,0000,0000,0000,0000,0000,00000,00000*7B

$GPRMC,073245.00,A,5543.0436,N,03739.7763,E,000.05540,090.3,011211,,,A*58

$GNGSA,07,08*53

$MLG,27,0*73

$PGIO,291486,C,00010742,00,00,0.00,0.00,13.7,6.36,0000,0000,0000,0000,0000,0000,0000,0000,00000,00000*78

$GPRMC,073250.00,A,5543.0435,N,03739.7764,E,000.06311,290.8,011211,,,A*50

$GNGSA,06,08*52

$MLG,27,0*73

$PGIO,291486,C,00010743,00,00,0.00,0.00,13.6,6.36,0000,0000,0000,0000,0000,0000,0000,0000,00000,00000*78

$GPRMC,073255.00,A,5543.0433,N,03739.7765,E,000.06196,340.1,011211,,,A*5A

$GNGSA,07,08*53

$MLG,27,0*73

$PGIO,291486,C,00010744,00,00,0.00,0.00,13.7,6.36,0000,0000,0000,0000,0000,0000,0000,0000,00000,00000*7E

$GPRMC,073300.00,A,5543.0433,N,03739.7766,E,000.05529,165.7,011211,,,A*58

$GNGSA,09,07*52

$MLG,27,0*73

$PGIO,291486,C,00010745,00,00,0.00,0.00,13.7,6.36,0000,0000,0000,0000,0000,0000,0000,0000,00000,00000*7F

$GPRMC,073305.00,A,5543.0431,N,03739.7766,E,000.05253,267.8,011211,,,A*5B

$GNGSA,08,08*5C

$MLG,27,0*73

$PGIO,291486,C,00010746,00,00,0.00,0.00,13.7,6.36,0000,0000,0000,0000,0000,0000,0000,0000,00000,00000*7C

$GPRMC,073311.00,A,5543.0431,N,03739.7767,E,000.04712,033.4,011211,,,A*51

$GNGSA,06,07*5D

$MLG,27,0*73

$PGIO,291486,C,00010747,00,00,0.00,0.00,13.6,6.37,0000,0000,0000,0000,0000,0000,0000,0000,00000,00000*7D

$GPRMC,073316.00,A,5543.0431,N,03739.7767,E,000.04013,095.8,011211,,,A*50

$GNGSA,09,07*52

$MLG,27,0*73

$PGIO,291486,C,00010748,00,00,0.00,0.00,13.6,6.37,0000,0000,0000,0000,0000,0000,0000,0000,00000,00000*72

$GPRMC,073321.00,A,5543.0431,N,03739.7765,E,000.03379,176.6,011211,,,A*5C

$GNGSA,09,08*5D

$MLG,27,0*73

$PGIO,291486,C,00010749,00,00,0.00,0.00,13.7,6.37,0000,0000,0000,0000,0000,0000,0000,0000,00000,00000*72

$GPRMC,073326.00,A,5543.0437,N,03739.7763,E,000.02868,157.9,011211,,,A*5D

$GNGSA,08,08*5C

$MLG,27,0*73

$PGIO,291486,C,00010750,00,00,0.00,0.00,13.6,6.37,0000,0000,0000,0000,0000,0000,0000,0000,00000,00000*7B

$GPRMC,073331.00,A,5543.0441,N,03739.7760,E,000.04969,098.3,011211,,,A*57

$GNGSA,06,07*5D

$MLG,27,0*73

$PGIO,291486,C,00010751,00,00,0.00,0.00,13.6,6.37,0000,0000,0000,0000,0000,0000,0000,0000,00000,00000*7A

$GPRMC,073336.00,A,5543.0444,N,03739.7755,E,000.06713,008.3,011211,,,A*5B

$GNGSA,07,08*53

$MLG,27,0*73

$PGIO,291486,C,00010752,00,00,0.00,0.00,13.6,6.37,0000,0000,0000,0000,0000,0000,0000,0000,00000,00000*79

$GPRMC,073341.00,A,5543.0450,N,03739.7752,E,000.08909,332.6,011211,,,A*5D

$GNGSA,07,08*53

$MLG,27,0*73

$PGIO,291486,C,00010753,00,00,0.00,0.00,13.6,6.37,0000,0000,0000,0000,0000,0000,0000,0000,00000,00000*78

$GPRMC,073346.00,A,5543.0457,N,03739.7751,E,000.11936,086.0,011211,,,A*50

$GNGSA,08,08*5C

$MLG,27,0*73

$PGIO,291486,C,00010754,00,00,0.00,0.00,13.7,6.37,0000,0000,0000,0000,0000,0000,0000,0000,00000,00000*7E

$GPRMC,073351.00,A,5543.0465,N,03739.7749,E,000.14672,334.8,011211,,,A*56

$GNGSA,08,08*5C

$MLG,27,0*73

$PGIO,291486,C,00010755,00,00,0.00,0.00,13.6,6.37,0000,0000,0000,0000,0000,0000,0000,0000,00000,00000*7E

$GPRMC,073356.00,A,5543.0468,N,03739.7750,E,000.15385,336.0,011211,,,A*52

$GNGSA,08,08*5C

$MLG,27,0*73

$PGIO,291486,C,00010756,00,00,0.00,0.00,13.6,6.37,0000,0000,0000,0000,0000,0000,0000,0000,00000,00000*7D

$GPRMC,073401.00,A,5543.0469,N,03739.7750,E,000.14447,339.5,011211,,,A*54

$GNGSA,08,08*5C

$MLG,27,0*73

$PGIO,291486,C,00010757,00,00,0.00,0.00,13.7,6.37,0000,0000,0000,0000,0000,0000,0000,0000,00000,00000*7D

$GPRMC,073406.00,A,5543.0470,N,03739.7752,E,000.13044,338.3,011211,,,A*5E

$GNGSA,07,08*53

$MLG,27,0*73

$PGIO,291486,C,00010758,00,00,0.00,0.00,13.7,6.37,0000,0000,0000,0000,0000,0000,0000,0000,00000,00000*72

$GPRMC,073411.00,A,5543.0478,N,03739.7804,E,002.20532,059.4,011211,,,A*59

$GNGSA,07,07*5C

$MLG,27,4*77

$PGIO,291486,C,00010759,00,00,0.00,0.00,13.6,6.37,0000,0000,0000,0000,0000,0000,0000,0000,00000,00000*72

$GPRMC,073416.00,A,5543.0483,N,03739.7838,E,000.74204,207.2,011211,,,A*5B

$GNGSA,08,08*5C

$MLG,27,1*72

$PGIO,291486,C,00010760,00,00,0.00,0.00,13.6,6.37,0000,0000,0000,0000,0000,0000,0000,0000,00000,00000*78

$GPRMC,073422.00,A,5543.0484,N,03739.7839,E,000.17978,186.1,011211,,,A*56

$GNGSA,08,08*5C

$MLG,27,0*73

$PGIO,291486,C,00010761,00,00,0.00,0.00,13.7,6.37,0000,0000,0000,0000,0000,0000,0000,0000,00000,00000*78

$GPRMC,073427.00,A,5543.0498,N,03739.7892,E,002.66198,065.3,011211,,,A*53

$GNGSA,06,05*5F

$MLG,27,4*77

$PGIO,291486,C,00010762,00,00,0.00,0.00,13.6,6.37,0000,0000,0000,0000,0000,0000,0000,0000,00000,00000*7A

$GPRMC,073432.00,A,5543.0549,N,03739.8104,E,009.96991,062.3,011211,,,A*51

$GNGSA,07,08*53

$MLG,27,18*4A

$PGIO,291486,C,00010763,00,00,0.00,0.00,13.5,6.37,0000,0000,0000,0000,0000,0000,0000,0000,00000,00000*78

$GPRMC,073437.00,A,5543.0607,N,03739.8299,E,005.09853,055.2,011211,,,A*5A

$GNGSA,09,07*52

$MLG,27,9*7A

$PGIO,291486,C,00010764,00,00,0.00,0.00,13.7,6.37,0000,0000,0000,0000,0000,0000,0000,0000,00000,00000*7D

$GPRMC,073442.00,A,5543.0635,N,03739.8350,E,001.85382,079.0,011211,,,A*56

$GNGSA,08,07*53

$MLG,27,3*70

$PGIO,291486,C,00010765,00,00,0.00,0.00,13.4,6.38,0000,0000,0000,0000,0000,0000,0000,0000,00000,00000*70

$GPRMC,073447.00,A,5543.0640,N,03739.8348,E,000.12148,004.9,011211,,,A*50

$GNGSA,06,07*5D

$MLG,27,0*73

$PGIO,291486,C,00010766,00,00,0.00,0.00,13.2,6.37,0000,0000,0000,0000,0000,0000,0000,0000,00000,00000*7A

$GPRMC,073452.00,A,5543.0641,N,03739.8348,E,000.09717,158.8,011211,,,A*5A

$GNGSA,08,07*53

$MLG,27,0*73

$PGIO,291486,C,00010767,00,00,0.00,0.00,13.6,6.37,0000,0000,0000,0000,0000,0000,0000,0000,00000,00000*7F

$GPRMC,073457.00,A,5543.0643,N,03739.8350,E,000.03772,331.3,011211,,,A*5B

$GNGSA,07,08*53

$MLG,27,0*73

$PGIO,291486,C,00010768,00,00,0.00,0.00,13.6,6.38,0000,0000,0000,0000,0000,0000,0000,0000,00000,00000*7F

$GPRMC,073502.00,A,5543.0642,N,03739.8353,E,000.02724,355.9,011211,,,A*52

$GNGSA,07,07*5C

$MLG,27,0*73

$PGIO,291486,C,00010769,00,00,0.00,0.00,13.6,6.38,0000,0000,0000,0000,0000,0000,0000,0000,00000,00000*7E

$GPRMC,073507.00,A,5543.0642,N,03739.8353,E,000.02345,004.8,011211,,,A*52

$GNGSA,08,08*5C

$MLG,27,0*73

$PGIO,291486,C,00010770,00,00,0.00,0.00,13.6,6.38,0000,0000,0000,0000,0000,0000,0000,0000,00000,00000*76

$GPRMC,073512.00,A,5543.0639,N,03739.8351,E,000.02369,183.5,011211,,,A*55

$GNGSA,07,06*5D

$MLG,27,0*73

$PGIO,291486,C,00010771,00,00,0.00,0.00,13.6,6.38,0000,0000,0000,0000,0000,0000,0000,0000,00000,00000*77

$GPRMC,073517.00,A,5543.0639,N,03739.8348,E,000.02458,097.8,011211,,,A*54

$GNGSA,08,06*52

$MLG,27,0*73

$PGIO,291486,C,00010772,00,00,0.00,0.00,13.6,6.38,0000,0000,0000,0000,0000,0000,0000,0000,00000,00000*74

$GPRMC,073522.00,A,5543.0641,N,03739.8349,E,000.01145,190.4,011211,,,A*5C

$GNGSA,06,07*5D

$MLG,27,0*73

$PGIO,291486,C,00010773,00,00,0.00,0.00,13.6,6.38,0000,0000,0000,0000,0000,0000,0000,0000,00000,00000*75

$GPRMC,073527.00,A,5543.0640,N,03739.8349,E,000.00983,146.6,011211,,,A*52

$GNGSA,08,07*53

$MLG,27,0*73

$PGIO,291486,C,00010774,00,00,0.00,0.00,13.6,6.38,0000,0000,0000,0000,0000,0000,0000,0000,00000,00000*72

$GPRMC,073533.00,A,5543.0641,N,03739.8351,E,000.00542,213.7,011211,,,A*5C

$GNGSA,08,08*5C

$MLG,27,0*73

$PGIO,291486,C,00010775,00,00,0.00,0.00,13.6,6.38,0000,0000,0000,0000,0000,0000,0000,0000,00000,00000*73

$GPRMC,073538.00,A,5543.0640,N,03739.8350,E,000.00686,200.7,011211,,,A*5E

$GNGSA,08,08*5C

$MLG,27,0*73

$PGIO,291486,C,00010776,00,00,0.00,0.00,13.6,6.38,0000,0000,0000,0000,0000,0000,0000,0000,00000,00000*70

$GPRMC,073543.00,A,5543.0640,N,03739.8349,E,000.00719,280.4,011211,,,A*56

$GNGSA,08,07*53

$MLG,27,0*73

$PGIO,291486,C,00010777,00,00,0.00,0.00,13.7,6.38,0000,0000,0000,0000,0000,0000,0000,0000,00000,00000*70

$GPRMC,073548.00,A,5543.0646,N,03739.8347,E,000.01875,017.8,011211,,,A*51

$GNGSA,07,06*5D

$MLG,27,0*73

$PGIO,291486,C,00010778,00,00,0.00,0.00,13.7,6.38,0000,0000,0000,0000,0000,0000,0000,0000,00000,00000*7F

$GPRMC,073551.00,A,5543.0703,N,03739.8329,E,011.93668,349.2,011211,,,A*5A

$GNGSA,06,06*5C

$MLG,27,22*43

$PGIO,291486,C,00010779,00,00,0.00,0.00,13.7,6.38,0000,0000,0000,0000,0000,0000,0000,0000,00000,00000*7E

$GPRMC,073556.00,A,5543.0920,N,03739.8260,E,017.19325,350.0,011211,,,A*5C

$GNGSA,06,07*5D

$MLG,27,31*41

$PGIO,291486,C,00010780,00,00,0.00,0.00,13.8,6.38,0000,0000,0000,0000,0000,0000,0000,0000,00000,00000*77

$GPRMC,073601.00,A,5543.1232,N,03739.8197,E,027.18217,357.3,011211,,,A*59

$GNGSA,08,09*5D

$MLG,27,50*46

$PGIO,291486,C,00010781,00,00,0.00,0.00,13.8,6.38,0000,0000,0000,0000,0000,0000,0000,0000,00000,00000*76

$GPRMC,073606.00,A,5543.1644,N,03739.8190,E,030.87652,000.6,011211,,,A*5D

$GNGSA,08,07*53

$MLG,27,57*41

$PGIO,291486,C,00010782,00,00,0.00,0.00,13.8,6.38,0000,0000,0000,0000,0000,0000,0000,0000,00000,00000*75

$GPRMC,073611.00,A,5543.2091,N,03739.8202,E,033.73937,001.0,011211,,,A*5D

$GNGSA,07,08*53

$MLG,27,62*47

$PGIO,291486,C,00010783,00,00,0.00,0.00,13.8,6.38,0000,0000,0000,0000,0000,0000,0000,0000,00000,00000*74

$GPRMC,073614.00,A,5543.2384,N,03739.8212,E,035.99031,001.4,011211,,,A*57

$GNGSA,08,09*5D

$MLG,27,66*43

$PGIO,291486,C,00010784,00,00,0.00,0.00,13.8,6.38,0000,0000,0000,0000,0000,0000,0000,0000,00000,00000*73

$GPRMC,073619.00,A,5543.2887,N,03739.8207,E,033.94532,000.5,011211,,,A*5B

$GNGSA,09,07*52

$MLG,27,62*47

$PGIO,291486,C,00010785,00,00,0.00,0.00,13.8,6.38,0000,0000,0000,0000,0000,0000,0000,0000,00000,00000*72

$GPRMC,073624.00,A,5543.3334,N,03739.8217,E,025.73783,001.0,011211,,,A*54

$GNGSA,06,07*5D

$MLG,27,47*40

$PGIO,291486,C,00010786,00,00,0.00,0.00,13.7,6.38,0000,0000,0000,0000,0000,0000,0000,0000,00000,00000*7E

$GPRMC,073629.00,A,5543.3615,N,03739.8234,E,010.11714,002.1,011211,,,A*50

$GNGSA,06,08*52

$MLG,27,18*4A

$PGIO,291486,C,00010787,00,00,0.00,0.00,13.7,6.38,0000,0000,0000,0000,0000,0000,0000,0000,00000,00000*7F

$GPRMC,073634.00,A,5543.3725,N,03739.8239,E,004.16828,003.3,011211,,,A*52

$GNGSA,06,06*5C

$MLG,27,7*74

$PGIO,291486,C,00010788,00,00,0.00,0.00,13.7,6.38,0000,0000,0000,0000,0000,0000,0000,0000,00000,00000*70

$GPRMC,073639.00,A,5543.3745,N,03739.8224,E,000.59118,085.9,011211,,,A*54

$GNGSA,04,07*5F

$MLG,27,1*72

$PGIO,291486,C,00010789,00,00,0.00,0.00,13.7,6.38,0000,0000,0000,0000,0000,0000,0000,0000,00000,00000*71

$GPRMC,073644.00,A,5543.3747,N,03739.8203,E,000.15692,225.4,011211,,,A*51

$GNGSA,06,07*5D

$MLG,27,0*73

$PGIO,291486,C,00010790,00,00,0.00,0.00,13.6,6.39,0000,0000,0000,0000,0000,0000,0000,0000,00000,00000*79

$GPRMC,073649.00,A,5543.3748,N,03739.8200,E,000.09420,206.7,011211,,,A*54

$GNGSA,06,06*5C

$MLG,27,0*73

$PGIO,291486,C,00010791,00,00,0.00,0.00,13.7,6.39,0000,0000,0000,0000,0000,0000,0000,0000,00000,00000*79

$GPRMC,073654.00,A,5543.3749,N,03739.8201,E,000.06460,131.8,011211,,,A*5B

$GNGSA,06,07*5D

$MLG,27,0*73

$PGIO,291486,C,00010792,00,00,0.00,0.00,13.8,6.38,0000,0000,0000,0000,0000,0000,0000,0000,00000,00000*74

$GPRMC,073659.00,A,5543.3780,N,03739.8243,E,000.88644,351.7,011211,,,A*5C

$GNGSA,02,05*5B

$MLG,27,1*72

$PGIO,291486,C,00010793,00,00,0.00,0.00,13.8,6.38,0000,0000,0000,0000,0000,0000,0000,0000,00000,00000*75

$GPRMC,073704.00,A,5543.3976,N,03739.8271,E,019.81334,002.0,011211,,,A*52

$GNGSA,04,08*50

$MLG,27,36*46

$PGIO,291486,C,00010794,00,00,0.00,0.00,13.8,6.38,0000,0000,0000,0000,0000,0000,0000,0000,00000,00000*72

$GPRMC,073709.00,A,5543.4271,N,03739.8304,E,019.03237,000.5,011211,,,A*58

$GNGSA,05,07*5E

$MLG,27,35*45

$PGIO,291486,C,00010795,00,00,0.00,0.00,13.8,6.38,0000,0000,0000,0000,0000,0000,0000,0000,00000,00000*73

$GPRMC,073714.00,A,5543.4545,N,03739.8297,E,017.89047,355.6,011211,,,A*56

$GNGSA,06,07*5D

$MLG,27,33*43

$PGIO,291486,C,00010796,00,00,0.00,0.00,13.8,6.39,0000,0000,0000,0000,0000,0000,0000,0000,00000,00000*71

$GPRMC,073719.00,A,5543.4738,N,03739.8272,E,013.39214,355.3,011211,,,A*56

$GNGSA,06,07*5D

$MLG,28,24*4A

$PGIO,291486,C,00010797,00,00,0.00,0.00,13.8,6.39,0000,0000,0000,0000,0000,0000,0000,0000,00000,00000*70

$GPRMC,073725.00,A,5543.5050,N,03739.8234,E,023.98681,356.1,011211,,,A*52

$GNGSA,07,08*53

$MLG,28,44*4C

$PGIO,291486,C,00010798,00,00,0.00,0.00,13.7,6.39,0000,0000,0000,0000,0000,0000,0000,0000,00000,00000*70

$GPRMC,073730.00,A,5543.5427,N,03739.8163,E,029.95314,352.7,011211,,,A*5F

$GNGSA,06,09*53

$MLG,28,55*4C

$PGIO,291486,C,00010799,00,00,0.00,0.00,13.8,6.39,0000,0000,0000,0000,0000,0000,0000,0000,00000,00000*7E

$GPRMC,073735.00,A,5543.5868,N,03739.8059,E,034.35125,349.8,011211,,,A*56

$GNGSA,06,08*52

$MLG,28,63*49

$PGIO,291486,C,00010800,00,00,0.00,0.00,13.9,6.39,0000,0000,0000,0000,0000,0000,0000,0000,00000,00000*70

$GPRMC,073736.00,A,5543.5963,N,03739.8027,E,035.83295,348.2,011211,,,A*59

$GNGSA,05,08*51

$MLG,28,66*4C

$PGIO,291486,C,00010801,00,00,0.00,0.00,13.9,6.39,0000,0000,0000,0000,0000,0000,0000,0000,00000,00000*71

$GPRMC,073746.00,A,5543.6917,N,03739.7566,E,037.01667,339.5,011211,,,A*51

$PGIO,291486,C,00010801,00,00,0.00,0.00,13.9,6.39,0000,0000,0000,0000,0000,0000,0000,0000,00000,00000*71

$PGIO,291486,C,00010803,00,00,0.00,0.00,13.8,6.39,0000,0000,0000,0000,0000,0000,0000,0000,00000,00000*72

$GPRMC,073806,A,5543.8412,N,03739.6650,E,09.73,041.6,011211,,*18

$GNGSA,08,06*52

$MLG,28,18*45

$PGIO,291486,C,00010823,00,00,0.00,0.00,13.7,6.39,0000,0000,0000,0000,0000,0000,0000,0000,00000,00000*7F

$GPRMC,074010.00,A,5543.8681,N,03739.7283,E,000.15865,202.3,011211,,,A*52

$GNGSA,04,08*50

$MLG,29,0*7D

$PGIO,291486,C,00010806,00,00,0.00,0.00,13.9,6.39,0000,0000,0000,0000,0000,0000,0000,0000,00000,00000*76

$GPRMC,073828,A,5543.8888,N,03739.9136,E,35.32,072.1,011211,,*1E

$GNGSA,06,06*5C

$MLG,28,65*4F

$PGIO,291486,C,00010807,00,00,0.00,0.00,13.7,6.39,0000,0000,0000,0000,0000,0000,0000,0000,00000,00000*79

$GPRMC,073838,A,5543.9212,N,03740.0423,E,15.03,031.3,011211,,*14

$GNGSA,07,05*5E

$MLG,29,27*48

$PGIO,291486,C,00010808,00,00,0.00,0.00,13.4,6.39,0000,0000,0000,0000,0000,0000,0000,0000,00000,00000*75

$GPRMC,073848,A,5543.9356,N,03740.0401,E,00.65,279.5,011211,,*1E

$GNGSA,06,07*5D

$MLG,29,1*7C

$PGIO,291486,C,00010809,00,00,0.00,0.00,13.8,6.39,0000,0000,0000,0000,0000,0000,0000,0000,00000,00000*78

$GPRMC,073858,A,5543.9384,N,03740.0347,E,02.40,291.7,011211,,*14

$GNGSA,07,07*5C

$MLG,29,4*79

$PGIO,291486,C,00010824,00,00,0.00,0.00,13.7,6.40,0000,0000,0000,0000,0000,0000,0000,0000,00000,00000*76

$GPRMC,074017.00,A,5543.8679,N,03739.7284,E,000.13332,106.8,011211,,,A*56

$GNGSA,04,08*50

$MLG,29,0*7D

$PGIO,291486,C,00010810,00,00,0.00,0.00,13.9,6.39,0000,0000,0000,0000,0000,0000,0000,0000,00000,00000*71

$GPRMC,073908,A,5543.9463,N,03739.9956,E,09.27,286.6,011211,,*1E

$GNGSA,06,05*5F

$MLG,29,17*4B

$PGIO,291486,C,00010811,00,00,0.00,0.00,13.9,6.40,0000,0000,0000,0000,0000,0000,0000,0000,00000,00000*7E

$GPRMC,073918,A,5543.9274,N,03739.9396,E,16.27,224.5,011211,,*1C

$GNGSA,05,05*5C

$MLG,29,30*4E

$PGIO,291486,C,00010812,00,00,0.00,0.00,13.9,6.40,0000,0000,0000,0000,0000,0000,0000,0000,00000,00000*7D

$GPRMC,073918,A,5543.9243,N,03739.9336,E,16.66,227.1,011211,,*10

$GNGSA,05,05*5C

$MLG,29,30*4E

$PGIO,291486,C,00010825,00,00,0.00,0.00,13.7,6.40,0000,0000,0000,0000,0000,0000,0000,0000,00000,00000*77

$GPRMC,074023.00,A,5543.8680,N,03739.7282,E,000.11560,338.2,011211,,,A*57

$GNGSA,04,07*5F

$MLG,29,0*7D

$PGIO,291486,C,00010813,00,00,0.00,0.00,13.9,6.39,0000,0000,0000,0000,0000,0000,0000,0000,00000,00000*72

$GPRMC,073923,A,5543.9123,N,03739.9009,E,17.80,242.5,011211,,*1C

$GNGSA,05,05*5C

$MLG,29,32*4C

$PGIO,291486,C,00010814,00,00,0.00,0.00,13.9,6.40,0000,0000,0000,0000,0000,0000,0000,0000,00000,00000*7B

$GPRMC,073928,A,5543.9000,N,03739.8598,E,18.20,243.4,011211,,*1E

$GNGSA,05,05*5C

$MLG,29,33*4D

$PGIO,291486,C,00010815,00,00,0.00,0.00,13.9,6.39,0000,0000,0000,0000,0000,0000,0000,0000,00000,00000*74

$GPRMC,073933,A,5543.8852,N,03739.8260,E,15.47,245.1,011211,,*15

$GNGSA,06,06*5C

$MLG,29,28*47

$PGIO,291486,C,00010816,00,00,0.00,0.00,13.9,6.40,0000,0000,0000,0000,0000,0000,0000,0000,00000,00000*79

$GPRMC,073938,A,5543.8781,N,03739.7944,E,11.08,252.0,011211,,*15

$GNGSA,05,06*5F

$MLG,29,20*4F

$PGIO,291486,C,00010826,00,00,0.00,0.00,13.6,6.40,0000,0000,0000,0000,0000,0000,0000,0000,00000,00000*75

$GPRMC,074030.00,A,5543.8682,N,03739.7281,E,000.10335,333.6,011211,,,A*5C

$GNGSA,05,06*5F

$MLG,29,0*7D

$PGIO,291486,C,00010817,00,00,0.00,0.00,13.6,6.40,0000,0000,0000,0000,0000,0000,0000,0000,00000,00000*77

$GPRMC,073943,A,5543.8727,N,03739.7663,E,11.36,249.4,011211,,*1C

$GNGSA,05,06*5F

$MLG,29,21*4E

$PGIO,291486,C,00010818,00,00,0.00,0.00,13.7,6.40,0000,0000,0000,0000,0000,0000,0000,0000,00000,00000*79

$GPRMC,073948,A,5543.8704,N,03739.7470,E,08.57,247.1,011211,,*12

$GNGSA,04,07*5F

$MLG,29,15*49

$PGIO,291486,C,00010819,00,00,0.00,0.00,13.8,6.40,0000,0000,0000,0000,0000,0000,0000,0000,00000,00000*77

$GPRMC,073953,A,5543.8684,N,03739.7303,E,02.50,252.4,011211,,*1E

$GNGSA,05,07*5E

$MLG,29,4*79

$PGIO,291486,C,00010827,00,00,0.00,0.00,13.7,6.40,0000,0000,0000,0000,0000,0000,0000,0000,00000,00000*75

$GPRMC,074035.00,A,5543.8680,N,03739.7282,E,000.08312,334.5,011211,,,A*50

$GNGSA,05,07*5E

$MLG,29,0*7D

$PGIO,291486,C,00010820,00,00,0.00,0.00,13.7,6.40,0000,0000,0000,0000,0000,0000,0000,0000,00000,00000*72

$GPRMC,073958,A,5543.8689,N,03739.7271,E,01.25,047.2,011211,,*1D

$GNGSA,05,07*5E

$MLG,29,2*7F

$PGIO,291486,C,00010821,00,00,0.00,0.00,13.6,6.40,0000,0000,0000,0000,0000,0000,0000,0000,00000,00000*72

$GPRMC,074003,A,5543.8682,N,03739.7282,E,00.08,102.6,011211,,*10

$GNGSA,06,08*52

$MLG,29,0*7D

$PGIO,291486,C,00010822,00,00,0.00,0.00,13.7,6.40,0000,0000,0000,0000,0000,0000,0000,0000,00000,00000*70

$GPRMC,074008,A,5543.8681,N,03739.7283,E,00.14,177.0,011211,,*10

$GNGSA,04,08*50

$MLG,29,0*7D

$PGIO,291486,C,00010828,00,00,0.00,0.00,13.6,6.40,0000,0000,0000,0000,0000,0000,0000,0000,00000,00000*7B

$GPRMC,074041.00,A,5543.8676,N,03739.7284,E,000.06213,159.7,011211,,,A*59

$GNGSA,05,07*5E

$MLG,29,0*7D

$PGIO,291486,C,00010829,00,00,0.00,0.00,13.7,6.40,0000,0000,0000,0000,0000,0000,0000,0000,00000,00000*7B

$GPRMC,074046.00,A,5543.8673,N,03739.7285,E,000.05546,012.1,011211,,,A*56

$GNGSA,05,07*5E

$MLG,29,0*7D

$PGIO,291486,C,00010830,00,00,0.00,0.00,13.7,6.40,0000,0000,0000,0000,0000,0000,0000,0000,00000,00000*73

$GPRMC,074051.00,A,5543.8673,N,03739.7285,E,000.04986,310.3,011211,,,A*52

$GNGSA,05,07*5E

$MLG,29,0*7D

$PGIO,291486,C,00010831,00,00,0.00,0.00,13.7,6.40,0000,0000,0000,0000,0000,0000,0000,0000,00000,00000*72

$GPRMC,074056.00,A,5543.8671,N,03739.7286,E,000.04656,191.7,011211,,,A*59

$GNGSA,05,06*5F

$MLG,29,0*7D

$PGIO,291486,C,00010832,00,00,0.00,0.00,13.7,6.40,0000,0000,0000,0000,0000,0000,0000,0000,00000,00000*71

$GPRMC,074101.00,A,5543.8670,N,03739.7285,E,000.04608,180.6,011211,,,A*52

$GNGSA,06,07*5D

$MLG,29,0*7D

$PGIO,291486,C,00010833,00,00,0.00,0.00,13.7,6.40,0000,0000,0000,0000,0000,0000,0000,0000,00000,00000*70

$GPRMC,074106.00,A,5543.8669,N,03739.7285,E,000.04346,138.4,011211,,,A*53

$GNGSA,05,08*51

$MLG,29,0*7D

$PGIO,291486,C,00010834,00,00,0.00,0.00,13.7,6.40,0000,0000,0000,0000,0000,0000,0000,0000,00000,00000*77

$GPRMC,074111.00,A,5543.8667,N,03739.7286,E,000.04162,199.0,011211,,,A*53

$GNGSA,05,07*5E

$MLG,29,0*7D

$PGIO,291486,C,00010835,00,00,0.00,0.00,13.7,6.40,0000,0000,0000,0000,0000,0000,0000,0000,00000,00000*76

$GPRMC,074116.00,A,5543.8663,N,03739.7288,E,000.04263,131.4,011211,,,A*5A

$GNGSA,05,07*5E

$MLG,29,0*7D

$PGIO,291486,C,00010836,00,00,0.00,0.00,13.7,6.40,0000,0000,0000,0000,0000,0000,0000,0000,00000,00000*75

$GPRMC,074121.00,A,5543.8660,N,03739.7289,E,000.04692,247.5,011211,,,A*55

$GNGSA,06,06*5C

$MLG,29,0*7D

$PGIO,291486,C,00010837,00,00,0.00,0.00,13.7,6.40,0000,0000,0000,0000,0000,0000,0000,0000,00000,00000*74

$GPRMC,074127.00,A,5543.8656,N,03739.7290,E,000.05759,014.8,011211,,,A*50

$GNGSA,06,07*5D

$MLG,29,0*7D

$PGIO,291486,C,00010838,00,00,0.00,0.00,13.7,6.40,0000,0000,0000,0000,0000,0000,0000,0000,00000,00000*7B

$GPRMC,074132.00,A,5543.8657,N,03739.7290,E,000.04193,150.9,011211,,,A*54

$GNGSA,06,07*5D

$MLG,29,0*7D

$PGIO,291486,C,00010839,00,00,0.00,0.00,13.7,6.40,0000,0000,0000,0000,0000,0000,0000,0000,00000,00000*7A

$GPRMC,074137.00,A,5543.8656,N,03739.7290,E,000.03469,197.6,011211,,,A*53

$GNGSA,04,08*50

$MLG,29,0*7D

$PGIO,291486,C,00010840,00,00,0.00,0.00,13.6,6.40,0000,0000,0000,0000,0000,0000,0000,0000,00000,00000*75

$GPRMC,074142.00,A,5543.8654,N,03739.7290,E,000.03574,353.5,011211,,,A*57

$GNGSA,06,06*5C

$MLG,29,0*7D

$PGIO,291486,C,00010841,00,00,0.00,0.00,13.6,6.40,0000,0000,0000,0000,0000,0000,0000,0000,00000,00000*74

$GPRMC,074147.00,A,5543.8650,N,03739.7291,E,000.04053,170.3,011211,,,A*55

$GNGSA,05,08*51

$MLG,29,0*7D

$PGIO,291486,C,00010842,00,00,0.00,0.00,13.7,6.40,0000,0000,0000,0000,0000,0000,0000,0000,00000,00000*76

$GPRMC,074152.00,A,5543.8647,N,03739.7292,E,000.04441,164.3,011211,,,A*56

$GNGSA,05,07*5E

$MLG,29,0*7D

$PGIO,291486,C,00010843,00,00,0.00,0.00,13.7,6.40,0000,0000,0000,0000,0000,0000,0000,0000,00000,00000*77

$GPRMC,074157.00,A,5543.8640,N,03739.7294,E,000.06656,172.2,011211,,,A*52

$GNGSA,06,07*5D

$MLG,29,0*7D

$PGIO,291486,C,00010844,00,00,0.00,0.00,13.8,6.40,0000,0000,0000,0000,0000,0000,0000,0000,00000,00000*7F

$GPRMC,074202.00,A,5543.8651,N,03739.7277,E,000.12878,234.2,011211,,,A*5A

$GNGSA,06,04*5E

$MLG,29,0*7D

$PGIO,291486,C,00010845,00,00,0.00,0.00,13.8,6.40,0000,0000,0000,0000,0000,0000,0000,0000,00000,00000*7E

$GPRMC,074207.00,A,5543.8616,N,03739.7067,E,012.11743,252.0,011211,,,A*5A

$GNGSA,06,06*5C

$MLG,29,22*4D

$PGIO,291486,C,00010846,00,00,0.00,0.00,13.7,6.41,0000,0000,0000,0000,0000,0000,0000,0000,00000,00000*73

$GPRMC,074212.00,A,5543.8573,N,03739.6789,E,008.97961,248.8,011211,,,A*50

$GNGSA,06,06*5C

$MLG,29,16*4A

$PGIO,291486,C,00010847,00,00,0.00,0.00,13.7,6.40,0000,0000,0000,0000,0000,0000,0000,0000,00000,00000*73

$GPRMC,074217.00,A,5543.8550,N,03739.6706,E,000.96476,130.9,011211,,,A*5C

$GNGSA,06,07*5D

$MLG,29,1*7C

$PGIO,291486,C,00010848,00,00,0.00,0.00,13.7,6.41,0000,0000,0000,0000,0000,0000,0000,0000,00000,00000*7D

$GPRMC,074222.00,A,5543.8551,N,03739.6708,E,000.35096,342.4,011211,,,A*5C

$GNGSA,06,07*5D

$MLG,29,0*7D

$PGIO,291486,C,00010849,00,00,0.00,0.00,13.7,6.41,0000,0000,0000,0000,0000,0000,0000,0000,00000,00000*7C

$GPRMC,074227.00,A,5543.8551,N,03739.6708,E,000.15336,006.6,011211,,,A*53

$GNGSA,06,08*52

$MLG,29,0*7D

$PGIO,291486,C,00010850,00,00,0.00,0.00,13.7,6.41,0000,0000,0000,0000,0000,0000,0000,0000,00000,00000*74

$GPRMC,074233.00,A,5543.8551,N,03739.6709,E,000.03663,192.6,011211,,,A*59

$GNGSA,06,09*53

$MLG,29,0*7D

$PGIO,291486,C,00010851,00,00,0.00,0.00,13.7,6.41,0000,0000,0000,0000,0000,0000,0000,0000,00000,00000*75

$GPRMC,074238.00,A,5543.8551,N,03739.6709,E,000.00812,341.7,011211,,,A*54

$GNGSA,06,09*53

$MLG,29,0*7D

$PGIO,291486,C,00010852,00,00,0.00,0.00,13.7,6.41,0000,0000,0000,0000,0000,0000,0000,0000,00000,00000*76

$GPRMC,074243.00,A,5543.8552,N,03739.6710,E,000.00710,345.7,011211,,,A*5A

$GNGSA,06,08*52

$MLG,29,0*7D

$PGIO,291486,C,00010853,00,00,0.00,0.00,13.6,6.41,0000,0000,0000,0000,0000,0000,0000,0000,00000,00000*76

$GPRMC,074248.00,A,5543.8550,N,03739.6713,E,000.00557,335.9,011211,,,A*58

$GNGSA,06,09*53

$MLG,29,0*7D

$PGIO,291486,C,00010854,00,00,0.00,0.00,13.8,6.41,0000,0000,0000,0000,0000,0000,0000,0000,00000,00000*7F

$GPRMC,074253.00,A,5543.8550,N,03739.6708,E,000.01663,245.9,011211,,,A*5B

$GNGSA,06,09*53

$MLG,29,0*7D

$PGIO,291486,C,00010855,00,00,0.00,0.00,13.8,6.41,0000,0000,0000,0000,0000,0000,0000,0000,00000,00000*7E

$GPRMC,074258.00,A,5543.8491,N,03739.6460,E,018.00867,248.6,011211,,,A*51

$GNGSA,05,08*51

$MLG,29,33*4D

$PGIO,291486,C,00010856,00,00,0.00,0.00,13.8,6.41,0000,0000,0000,0000,0000,0000,0000,0000,00000,00000*7D

$GPRMC,074303.00,A,5543.8383,N,03739.5937,E,028.03925,249.9,011211,,,A*5F

$GNGSA,05,09*50

$MLG,29,51*49

$PGIO,291486,C,00010857,00,00,0.00,0.00,13.8,6.41,0000,0000,0000,0000,0000,0000,0000,0000,00000,00000*7C

$GPRMC,074308.00,A,5543.8238,N,03739.5253,E,031.92533,250.5,011211,,,A*53

$GNGSA,07,09*52

$MLG,29,59*41

